{"type":"FeatureCollection","features":[{"type":"Feature","id":1,"geometry":{"type":"Point","coordinates":[16.971973644061001,49.895148248378632]},"properties":{"OBJECTID":1,"nazev":"Most k bráně"}},{"type":"Feature","id":2,"geometry":{"type":"Point","coordinates":[16.972285699895021,49.895177697941918]},"properties":{"OBJECTID":2,"nazev":"Západní věž"}},{"type":"Feature","id":3,"geometry":{"type":"Point","coordinates":[16.972305315368647,49.89557334449885]},"properties":{"OBJECTID":3,"nazev":"Severní věž"}},{"type":"Feature","id":4,"geometry":{"type":"Point","coordinates":[16.972508543731855,49.8951609363872]},"properties":{"OBJECTID":4,"nazev":"Východní věž"}},{"type":"Feature","id":5,"geometry":{"type":"Point","coordinates":[16.972478655163748,49.895279011769077]},"properties":{"OBJECTID":5,"nazev":"Propadlý sklep"}},{"type":"Feature","id":6,"geometry":{"type":"Point","coordinates":[16.972302594368784,49.895336242269231]},"properties":{"OBJECTID":6,"nazev":"Nádvoří"}}]}
